City,Country,Latitude,Longitude,Date,Cloudiness (%),Humidity (%),Max Temperature (°C),Wind Speed (m/s)
Bengkulu,ID,-3.8004,102.2655,1619514452,38,76,28.86,2.69
Kavieng,PG,-2.5744,150.7967,1619514472,98,77,27.98,3.69
Loandjili,CG,-4.7561,11.8578,1619514409,40,79,29.0,3.6
Qaanaaq,GL,77.484,-69.3632,1619514472,99,71,-0.12,3.79
Barra de Tecoanapa,MX,16.5167,-98.75,1619514472,73,72,25.68,2.72
Ushuaia,AR,-54.8,-68.3,1619514328,75,87,5.0,1.03
Luancheng,CN,37.8792,114.6517,1619514231,0,15,25.0,7.0
Kapaa,US,22.0752,-159.319,1619514473,1,88,21.0,2.57
Looc,PH,12.2605,121.9926,1619514473,47,69,28.28,5.55
Ust-Kuyga,RU,70.0167,135.6,1619514473,100,92,-5.64,3.95
Rikitea,PF,-23.1203,-134.9692,1619514473,98,74,24.92,3.4
Punta Arenas,CL,-53.15,-70.9167,1619514449,0,93,7.0,1.54
Qujing,CN,25.4833,103.7833,1619514178,71,66,18.15,5.34
Tiznit Province,MA,29.5833,-9.5,1619514473,50,67,15.71,2.28
Poso,ID,-1.3959,120.7524,1619514473,39,76,28.08,0.55
Hithadhoo,MV,-0.6,73.0833,1619514474,35,59,28.39,1.33
Atuona,PF,-9.8,-139.0333,1619514474,91,74,26.5,7.31
Barrow,US,71.2906,-156.7887,1619514474,90,79,-8.0,4.12
Ilulissat,GL,69.2167,-51.1,1619514474,90,93,1.0,3.09
Geraldton,AU,-28.7667,114.6,1619514325,8,44,27.0,6.69
Port Alfred,ZA,-33.5906,26.891,1619514464,49,68,22.14,7.83
Dongying,CN,37.4564,118.4856,1619514474,3,13,22.99,5.41
São Félix do Xingu,BR,-6.6447,-51.995,1619514469,99,99,21.75,0.06
Bara,NG,10.3744,10.7288,1619514475,78,36,33.93,2.14
Ribeira Grande,PT,38.5167,-28.7,1619514475,75,77,16.0,3.6
Tuy Hoa,VN,13.0833,109.3,1619514190,100,68,29.15,4.72
Castro,BR,-24.7911,-50.0119,1619514475,97,95,13.73,1.3
Dikson,RU,73.5069,80.5464,1619514475,100,97,-0.08,8.02
Mar del Plata,AR,-38.0023,-57.5575,1619514476,40,93,12.78,1.54
Puerto Ayora,EC,-0.7393,-90.3518,1619514476,16,91,23.46,2.15
Lebu,CL,-37.6167,-73.65,1619514476,24,80,11.37,2.42
Weligama,LK,5.9667,80.4167,1619514477,98,66,30.08,3.77
Lompoc,US,34.6391,-120.4579,1619514477,42,76,11.0,2.57
Daru,PG,-9.0763,143.2092,1619514477,100,85,26.61,3.76
Mount Gambier,AU,-37.8333,140.7667,1619514477,90,94,13.0,4.12
Bowen,AU,-20.0167,148.2333,1619514477,40,73,22.0,3.6
Auki,SB,-8.7676,160.7034,1619514477,100,85,26.24,0.71
Airai,TL,-8.9266,125.4092,1619514477,94,71,17.41,0.6
Mataura,NZ,-46.1927,168.8643,1619514478,98,87,6.11,0.45
Abhā,SA,18.2164,42.5053,1619514416,75,67,22.0,4.12
Dehlorān,IR,32.6941,47.2679,1619514478,99,10,36.91,7.21
Toora-Khem,RU,52.4675,96.11,1619514478,100,32,10.36,2.08
Port Lincoln,AU,-34.7333,135.8667,1619514478,49,72,17.28,2.97
Chui,UY,-33.6971,-53.4616,1619514478,4,87,10.29,3.44
East London,ZA,-33.0153,27.9116,1619514478,0,60,23.0,8.75
Los Llanos de Aridane,ES,28.6585,-17.9182,1619514406,20,64,21.0,1.03
Lashio,MM,22.9333,97.75,1619514294,75,26,32.75,3.34
Olafsvik,IS,64.8945,-23.7142,1619514479,28,87,6.4,3.43
Cape Town,ZA,-33.9258,18.4232,1619513992,75,94,20.56,2.06
Busselton,AU,-33.65,115.3333,1619514479,5,64,23.89,0.89
Caravelas,BR,-17.7125,-39.2481,1619514489,5,86,22.25,2.35
Yellowknife,CA,62.456,-114.3525,1619514489,20,78,-17.78,3.09
Banda Aceh,ID,5.5577,95.3222,1619514490,94,67,29.88,4.18
Vaini,TO,-21.2,-175.2,1619514490,75,94,25.0,4.12
Tasiilaq,GL,65.6145,-37.6368,1619514490,40,80,2.0,3.09
Hualmay,PE,-11.0964,-77.6139,1619514456,25,94,17.92,3.29
San Patricio,US,28.017,-97.5169,1619514490,90,88,25.0,4.63
Mitsamiouli,KM,-11.3847,43.2844,1619514490,92,66,28.63,1.99
Coahuayana Viejo,MX,18.7333,-103.6833,1619514490,8,62,21.55,1.13
Flinders,AU,-34.5833,150.8552,1619514491,17,76,18.33,0.45
Tuktoyaktuk,CA,69.4541,-133.0374,1619514491,6,93,-18.54,3.93
Bluff,NZ,-46.6,168.3333,1619514491,89,87,6.11,0.45
Kloulklubed,PW,7.0419,134.2556,1619514491,75,78,28.0,2.57
Izumo,JP,35.3667,132.7667,1619514416,75,60,20.0,6.17
Carnarvon,AU,-24.8667,113.6333,1619514491,0,69,27.0,5.14
Upernavik,GL,72.7868,-56.1549,1619514491,100,85,1.1,8.58
Lavrentiya,RU,65.5833,-171.0,1619514492,31,96,-4.92,0.73
Senador Guiomard,BR,-10.1522,-67.7392,1619514492,0,100,21.0,1.54
Pisco,PE,-13.7,-76.2167,1619514492,0,92,16.11,0.61
Fairbanks,US,64.8378,-147.7164,1619514492,1,35,4.0,3.09
Avarua,CK,-21.2078,-159.775,1619514492,94,100,22.0,1.03
Thompson,CA,55.7435,-97.8558,1619514492,90,93,0.0,6.17
Sarlat-la-Canéda,FR,44.889,1.2166,1619514493,98,75,13.89,0.45
Provideniya,RU,64.3833,-173.3,1619514493,5,88,0.37,1.82
Hong Kong,HK,22.2855,114.1577,1619514356,100,89,24.44,0.45
Hobart,AU,-42.8794,147.3294,1619514494,20,67,14.0,2.57
Norman Wells,CA,65.282,-126.8329,1619514494,20,78,-18.0,1.54
Hermanus,ZA,-34.4187,19.2345,1619514454,67,86,18.33,3.99
Gwanda,ZW,-20.9333,29.0,1619514494,0,21,28.92,3.24
Verkhoyansk,RU,67.5447,133.385,1619514494,100,97,-0.68,3.0
Saint-Pierre,RE,-21.3393,55.4781,1619514305,90,78,26.0,10.29
Longyearbyen,SJ,78.2186,15.6401,1619514495,40,62,-8.0,4.63
Katsuura,JP,35.1333,140.3,1619514495,75,67,18.33,9.26
Vila Velha,BR,-20.3297,-40.2925,1619514495,0,94,23.0,1.03
Maceió,BR,-9.6658,-35.7353,1619514417,0,100,22.0,1.54
Port Hardy,CA,50.6996,-127.4199,1619514495,75,93,8.0,2.06
Bathsheba,BB,13.2167,-59.5167,1619514496,75,65,26.0,7.2
George Town,MY,5.4112,100.3354,1619514359,20,70,30.0,2.06
Ishigaki,JP,24.3448,124.1572,1619514258,75,57,25.0,4.12
Cherskiy,RU,68.75,161.3,1619514497,25,87,-9.35,0.97
Mweka,CD,-4.85,21.5667,1619514497,96,56,29.83,1.2
Yilan,TW,24.757,121.753,1619514497,75,88,25.0,2.06
Elko,US,41.0002,-115.5012,1619514497,1,80,-0.56,1.26
Tuatapere,NZ,-46.1333,167.6833,1619514498,99,87,6.11,0.45
Nanortalik,GL,60.1432,-45.2371,1619514498,43,92,0.49,4.41
Broome,US,42.2506,-75.833,1619514498,90,80,1.67,3.6
Cabo San Lucas,MX,22.8909,-109.9124,1619514498,100,56,21.11,6.96
Filingué,NE,14.3521,3.3168,1619514498,30,18,36.81,1.54
New Norfolk,AU,-42.7826,147.0587,1619514508,3,80,12.78,1.45
Kokstad,ZA,-30.5472,29.4241,1619514509,72,22,23.88,4.51
Humboldt,US,40.6665,-123.9178,1619514509,1,100,4.44,2.57
Doha,QA,25.2867,51.5333,1619514440,64,30,40.0,5.14
Salé,MA,34.0389,-6.8166,1619514509,75,72,19.0,5.66
Putina,PE,-15.4667,-69.4333,1619514509,7,65,3.75,2.13
Castle Rock,US,39.3722,-104.8561,1619514509,100,33,11.11,1.34
Torbay,CA,47.6666,-52.7314,1619514509,90,100,7.22,10.29
Gore,NZ,-46.1028,168.9436,1619514510,98,87,6.11,0.45
Bredasdorp,ZA,-34.5322,20.0403,1619514510,74,82,17.0,3.09
Ambilobe,MG,-13.2,49.05,1619514510,76,49,32.48,2.45
Popondetta,PG,-8.7537,148.2534,1619514463,82,97,23.36,0.95
Slave Lake,CA,55.2834,-114.769,1619514510,75,93,-5.0,2.06
Guerrero Negro,MX,27.9769,-114.0611,1619514510,7,80,14.38,5.27
Kaitangata,NZ,-46.2817,169.8464,1619514510,97,83,6.67,0.89
Grand-Santi,GF,4.25,-54.3833,1619514511,100,99,22.81,0.07
Sterling,US,39.0062,-77.4286,1619514511,75,81,8.33,0.68
Necochea,AR,-38.5473,-58.7368,1619514511,0,87,10.97,3.41
Havøysund,NO,70.9963,24.6622,1619514511,75,64,0.0,1.54
Haines Junction,CA,60.7522,-137.5108,1619514511,82,59,0.0,1.54
Santa Isabel,BR,-23.3156,-46.2214,1619514511,90,100,17.0,0.87
Beaverlodge,CA,55.2166,-119.4361,1619514511,90,86,-4.0,6.17
Plastun,RU,44.7561,136.2939,1619514511,99,69,7.85,1.5
Butaritari,KI,3.0707,172.7902,1619514512,36,77,27.85,5.24
Hofn,IS,64.2539,-15.2082,1619514512,10,66,3.78,0.63
Port Hedland,AU,-20.3167,118.5667,1619514511,0,22,32.0,3.6
Tarakan,ID,3.3,117.6333,1619514500,40,62,32.0,1.54
Prince George,CA,53.9166,-122.753,1619514513,1,42,6.0,3.09
Kahului,US,20.8947,-156.47,1619514442,1,88,19.0,1.13
Leningradskiy,RU,69.3833,178.4167,1619514513,100,94,-2.85,1.02
Kolosovka,RU,56.4678,73.611,1619514514,99,32,15.21,7.03
Maturin,VE,9.75,-63.1767,1619514499,69,90,23.19,1.97
Myaundzha,RU,63.0494,147.1858,1619514514,77,91,-8.04,1.58
Bonthe,SL,7.5264,-12.505,1619514514,88,72,28.29,3.32
Jamestown,US,42.097,-79.2353,1619514514,90,36,8.0,4.12
Khatanga,RU,71.9667,102.5,1619514514,100,93,-1.03,7.69
Waitati,NZ,-45.75,170.5667,1619514514,86,73,7.22,3.13
Muros,ES,42.7762,-9.0603,1619514515,30,78,14.44,2.67
Manacapuru,BR,-3.2997,-60.6206,1619514515,40,94,23.0,1.03
Pangnirtung,CA,66.1451,-65.7125,1619514515,100,96,-3.9,2.46
Faanui,PF,-16.4833,-151.75,1619514515,14,71,27.39,4.88
Talnakh,RU,69.4865,88.3972,1619514444,11,79,-1.11,5.54
Saint George,US,37.1041,-113.5841,1619514515,90,87,8.0,5.14
Belmonte,BR,-15.8631,-38.8828,1619514515,20,94,20.0,2.06
Port Elizabeth,ZA,-33.918,25.5701,1619514516,0,60,21.0,8.23
Sahuaripa,MX,29.05,-109.2333,1619514516,54,42,18.02,2.37
Saint-Philippe,RE,-21.3585,55.7679,1619514516,90,78,27.0,10.29
Arraial do Cabo,BR,-22.9661,-42.0278,1619514491,75,94,23.0,4.63
Bambanglipuro,ID,-7.95,110.2833,1619514492,77,72,28.39,6.82
Lüderitz,NA,-26.6481,15.1594,1619514516,96,49,21.23,4.53
Bethel,US,41.3712,-73.414,1619514526,75,36,7.0,1.54
Grindavik,IS,63.8424,-22.4338,1619514526,90,81,7.0,4.63
Kawalu,ID,-7.3817,108.2082,1619514527,81,69,27.5,2.64
Lázaro Cárdenas,MX,17.9583,-102.2,1619514404,100,80,23.59,1.33
São Filipe,CV,14.8961,-24.4956,1619514514,21,77,21.68,3.01
Quelimane,MZ,-17.8786,36.8883,1619514441,75,83,28.0,1.54
Mahébourg,MU,-20.4081,57.7,1619514474,75,100,24.0,6.69
Sālūmbar,IN,24.1333,74.05,1619514467,2,9,39.0,2.06
Iskateley,RU,67.6803,53.1512,1619514527,100,84,-0.82,7.18
Buchanan,LR,5.8808,-10.0467,1619514527,75,89,27.0,1.94
Mwense,ZM,-10.3845,28.698,1619514528,71,57,27.03,1.66
Pangai,TO,-19.8,-174.35,1619514528,100,91,25.74,10.52
Sept-Îles,CA,50.2001,-66.3821,1619514454,90,93,5.0,5.66
Ostrovnoy,RU,68.0531,39.5131,1619514528,100,64,-0.15,2.96
Thinadhoo,MV,0.5333,72.9333,1619514516,21,64,28.25,1.74
Ihosy,MG,-22.4,46.1167,1619514529,10,52,27.06,3.22
Rajanpur,PK,29.1035,70.325,1619514418,0,5,42.82,2.56
Luan,CH,46.3592,6.9759,1619514529,40,62,13.0,3.09
Mosal'sk,RU,54.4881,34.9817,1619514529,100,51,5.27,5.2
Kirakira,SB,-10.4544,161.9205,1619514529,100,87,25.6,3.21
Tiksi,RU,71.6872,128.8694,1619514529,95,90,-9.91,1.75
Chabahar,IR,25.2919,60.643,1619514529,30,50,31.72,6.47
Ereymentau,KZ,51.6199,73.1033,1619514530,100,61,14.47,3.24
Pabradė,LT,55.0,25.7833,1619514530,75,87,2.22,4.12
Bilma,NE,18.6853,12.9164,1619514530,5,9,36.3,6.73
Marsaxlokk,MT,35.8419,14.5431,1619514530,20,73,21.0,4.12
San Nicolas,PH,18.1725,120.5953,1619514449,40,58,30.0,2.06
Vanimo,PG,-2.6741,141.3028,1619514530,3,80,26.78,1.94
Batagay-Alyta,RU,67.8006,130.4114,1619514530,100,90,-7.08,5.23
Albany,US,42.6001,-73.9662,1619514530,98,47,5.0,2.16
Gimbi,ET,9.1667,35.8333,1619514531,93,60,19.56,1.6
Granja,BR,-3.1203,-40.8261,1619514434,95,97,22.0,1.96
Baruun-Urt,MN,46.6806,113.2792,1619514422,99,24,5.7,10.33
Dakar,SN,14.6937,-17.4441,1619514435,0,94,20.0,3.09
Hobyo,SO,5.3505,48.5268,1619514531,99,59,31.14,4.65
Taoudenni,ML,22.6783,-3.9836,1619514531,9,10,34.92,3.81
Machalí,CL,-34.1833,-70.6667,1619514531,0,35,13.97,0.89
Bambous Virieux,MU,-20.3428,57.7575,1619514532,75,100,26.11,6.69
Khor,RU,47.8861,134.9464,1619514532,99,31,18.18,3.53
Narsaq,GL,60.9167,-46.05,1619514532,75,93,2.0,1.54
Agadez,NE,19.75,10.25,1619514517,0,9,34.06,1.36
Hambantota,LK,6.1241,81.1185,1619514517,40,70,32.0,4.63
Mudanjiang,CN,44.5833,129.6,1619514528,100,88,11.19,4.97
Erzin,TR,36.9559,36.2,1619514533,4,82,20.56,5.36
Goundam,ML,16.4145,-3.6708,1619514533,0,10,36.34,5.84
Iqaluit,CA,63.7506,-68.5145,1619514518,20,73,-9.0,3.09
Adana Province,TR,36.985,35.2881,1619514501,20,44,25.0,2.57
Honggang,CN,46.4667,124.8667,1619514456,89,19,17.78,7.73
Petropavlovsk-Kamchatskiy,RU,53.0452,158.6483,1619514485,90,100,2.0,3.0
Stephenville,US,32.2207,-98.2023,1619514534,75,78,21.0,5.66
Koslan,RU,63.4564,48.8989,1619514534,100,93,3.08,2.02
Clyde River,CA,70.4692,-68.5914,1619514534,90,100,-4.0,1.54
Humaitá,BR,-7.5061,-63.0208,1619514471,100,99,22.19,1.18
Dāmghān,IR,36.1683,54.348,1619514487,77,15,30.12,2.57
Severo-Kuril'sk,RU,50.6789,156.125,1619514544,100,97,1.54,6.34
Sedona,US,34.8697,-111.761,1619514544,90,50,10.0,3.6
Alençon,FR,48.4333,0.0833,1619514545,0,50,12.0,3.09
Fortuna,US,40.5982,-124.1573,1619514545,1,100,6.11,2.57
Solnechnyy,RU,50.7214,136.6319,1619514546,75,37,12.45,3.35
Jever,DE,53.5833,7.9,1619514546,20,34,11.11,5.14
Poli,TZ,-3.3333,36.8,1619514546,75,83,24.0,2.33
Atar,MR,20.5169,-13.0499,1619514442,81,14,28.9,2.58
Nachingwea,TZ,-10.3833,38.7667,1619514546,78,70,27.29,1.61
Cidreira,BR,-30.1811,-50.2056,1619514546,73,76,16.36,4.11
Mundo Nuevo (Ojo de Agua),MX,18.7,-95.5,1619514546,2,84,25.09,3.71
Luena,AO,-11.7833,19.9167,1619514409,40,78,23.0,3.09
Ifakara,TZ,-8.1333,36.6833,1619514468,68,75,27.92,0.59
Sulangan,PH,11.1373,123.7228,1619514547,11,67,28.09,4.79
Elhovo,BG,42.1667,26.5667,1619514547,75,51,16.0,2.06
Nikolskoye,RU,59.7035,30.7861,1619514547,90,81,4.0,4.0
Marystown,CA,47.1666,-55.1483,1619514547,100,98,4.74,5.9
Tateyama,JP,34.9833,139.8667,1619514547,75,52,18.33,6.69
St. George's,GD,12.0564,-61.7485,1619514480,75,88,25.0,4.12
Flagstaff,US,35.1981,-111.6513,1619514469,90,93,3.33,7.72
Cam Ranh,VN,11.9214,109.1591,1619514444,20,70,31.0,3.6
Pevek,RU,69.7008,170.3133,1619514548,100,97,-3.31,3.96
Farnes,NO,61.3167,7.8,1619514548,75,48,2.0,3.09
Luganville,VU,-15.5333,167.1667,1619514548,84,76,24.47,3.94
Banjarmasin,ID,-3.3244,114.591,1619513989,20,83,27.0,0.49
Nowy Sącz,PL,49.6218,20.6971,1619514548,6,49,7.78,1.79
Seoul,KR,37.5683,126.9778,1619514197,0,51,18.0,5.14
Beloha,MG,-25.1667,45.05,1619514549,0,33,33.02,1.63
Zhuanghe,CN,39.7008,122.9911,1619514549,76,81,13.3,4.23
Kushiro,JP,42.975,144.3747,1619514409,20,34,10.0,3.09
Fort-Shevchenko,KZ,44.5086,50.263,1619514549,95,80,13.48,7.46
Noumea,NC,-22.2763,166.4572,1619514334,36,78,21.0,3.6
Zaragoza,ES,41.6561,-0.8773,1619514549,90,88,13.0,0.51
Constitución,CL,-35.3333,-72.4167,1619514476,0,61,12.88,2.3
Ponnāni,IN,10.767,75.9252,1619514550,75,74,30.0,2.57
Safi,MA,32.2994,-9.2372,1619514551,42,78,18.35,5.42
Ixtapa,MX,20.7,-105.2,1619514492,82,82,23.89,1.48
Moussoro,TD,13.6408,16.4901,1619514552,12,5,38.8,9.84
Port-Gentil,GA,-0.7193,8.7815,1619514552,40,74,30.0,3.6
Tamandaré,BR,-8.7597,-35.1047,1619514434,99,84,24.57,0.76
Aklavik,CA,68.2191,-135.0107,1619514552,15,52,-10.0,3.09
Altagracia de Orituco,VE,9.8601,-66.3814,1619514552,73,90,22.1,1.85
Rocha,UY,-34.4833,-54.3333,1619514478,0,88,9.65,2.44
Donghai,CN,22.9459,115.642,1619514480,100,84,22.91,2.78
Esperance,AU,-33.8667,121.9,1619514553,100,46,23.0,3.6
Chernyshevskiy,RU,63.0128,112.4714,1619514553,100,64,-4.02,3.35
Hilo,US,19.7297,-155.09,1619514563,40,83,21.0,1.54
Palu,ID,-0.8917,119.8707,1619514563,82,89,27.51,0.71
Lichuan,CN,30.3,108.85,1619514563,87,72,16.9,0.74
Shitkino,RU,56.3703,98.3543,1619514563,86,74,5.99,1.49
Hargeisa,SO,9.56,44.065,1619514428,75,39,27.19,4.95
Codrington,AU,-38.2667,141.9667,1619514564,8,79,12.2,1.99
Cap Malheureux,MU,-19.9842,57.6142,1619514564,100,81,26.11,4.47
Souillac,MU,-20.5167,57.5167,1619514564,75,100,24.0,6.69
Yerbogachën,RU,61.2767,108.0108,1619514564,100,51,-0.87,2.63
Nantucket,US,41.2835,-70.0995,1619514318,1,53,7.0,4.63
Taltal,CL,-25.4,-70.4833,1619514565,18,83,15.47,1.24
Luocheng,CN,29.3848,104.0286,1619514565,23,39,26.08,3.45
Saint Paul Harbor,US,57.79,-152.4072,1619514565,90,87,6.0,7.72
Juneau,US,58.3019,-134.4197,1619514331,75,70,6.0,3.6
Galle,LK,6.0367,80.217,1619514408,100,69,29.29,3.29
Barcelos,PT,41.5388,-8.6151,1619514441,40,82,17.22,0.51
Karla,EE,59.3723,24.9275,1619514566,90,87,3.33,3.6
Rantepao,ID,-2.9701,119.8978,1619514498,79,96,22.71,0.71
Mahibadhoo,MV,3.7833,72.9667,1619514566,99,70,28.82,2.72
Berkåk,NO,62.825,10.0118,1619514567,92,68,2.78,1.34
Chipinge,ZW,-20.1883,32.6236,1619514567,1,26,28.49,0.63
Russell,US,32.3502,-85.1999,1619514567,1,94,17.0,1.96
Nago,JP,26.5881,127.9761,1619514567,1,38,25.0,2.57
Klaksvík,FO,62.2266,-6.589,1619514567,90,87,6.0,3.09
Ambon City,ID,-3.6954,128.1814,1619514567,40,70,29.0,2.57
Omboué,GA,-1.5746,9.2618,1619514567,100,71,29.17,1.61
Māngrol,IN,21.1167,70.1167,1619514493,15,54,31.45,6.22
Kiryat Gat,IL,31.61,34.7642,1619514496,23,46,24.44,0.89
Yulara,AU,-25.2406,130.9889,1619514568,2,18,26.0,5.66
Marawi,PH,7.9986,124.2928,1619514568,100,80,28.33,1.79
Ponta do Sol,PT,32.6667,-17.1,1619514568,20,59,19.0,5.14
Nouadhibou,MR,20.931,-17.0347,1619514504,20,88,19.0,5.66
Saskylakh,RU,71.9167,114.0833,1619514569,100,94,-5.23,5.11
Saint-Joseph,RE,-21.3667,55.6167,1619514569,90,78,26.0,10.29
Nome,US,64.5011,-165.4064,1619514569,1,70,3.0,3.6
Cayenne,GF,4.9333,-52.3333,1619514463,90,94,24.0,3.09
Hanyang,CN,32.1371,105.5126,1619514570,97,60,20.52,1.99
Yar-Sale,RU,66.8333,70.8333,1619514570,99,99,1.44,8.34
Iporá,BR,-16.4419,-51.1178,1619514461,26,73,18.76,1.67
Yokadouma,CM,3.5167,15.05,1619514570,87,49,31.83,1.45
Boguchany,RU,58.3814,97.4531,1619514570,97,58,6.88,3.06
Selikhino,RU,50.3672,137.4996,1619514571,67,37,13.64,1.23
Lana,IT,46.6124,11.1559,1619514571,75,67,13.0,1.03
Singaraja,ID,-8.112,115.0882,1619514571,83,70,28.35,0.68
Zaysan,KZ,47.4667,84.8667,1619514582,100,26,16.79,3.68
Chiredzi,ZW,-21.05,31.6667,1619514492,0,22,33.94,0.49
Talara,PE,-4.5772,-81.2719,1619514457,100,79,21.27,7.67
Kununurra,AU,-15.7667,128.7333,1619514592,40,49,33.0,2.57
Abbeville,FR,50.1,1.8333,1619514593,52,68,10.0,2.71
Pauini,BR,-7.7136,-66.9764,1619514593,100,99,20.88,1.36
Hasaki,JP,35.7333,140.8333,1619514483,75,67,16.67,5.66
Vardø,NO,70.3705,31.1107,1619514593,75,86,-1.0,4.63
Makaha,US,21.4694,-158.2175,1619514593,1,88,24.0,1.65
Halifax,CA,44.6453,-63.5724,1619514474,100,81,4.0,5.14
Dwārka,IN,22.2394,68.9678,1619514386,0,55,30.55,5.5
Dunedin,NZ,-45.8742,170.5036,1619514500,94,73,7.22,3.13
Te Anau,NZ,-45.4167,167.7167,1619514594,94,89,2.95,0.93
Shawinigan,CA,46.5668,-72.7491,1619514594,47,60,2.78,2.57
Biloela,AU,-24.4167,150.5,1619514594,83,56,21.05,5.15
Shubarshi,KZ,48.5872,57.1869,1619514594,100,53,19.38,6.61
Touros,BR,-5.1989,-35.4608,1619514594,40,100,22.0,1.54
Hamilton,US,39.1834,-84.5333,1619514594,20,67,15.56,2.57
Matagami,CA,49.7502,-77.6328,1619514594,20,93,-7.0,0.92
Lago da Pedra,BR,-4.3333,-45.1667,1619514595,80,98,21.76,0.82
Bagdarin,RU,54.4333,113.6,1619514595,100,49,-1.72,6.14
Faya,SA,18.3851,42.4509,1619514596,75,67,22.0,4.12
Sobolevo,RU,54.4299,31.8996,1619514596,98,50,5.99,4.78
Vuktyl,RU,63.8567,57.3094,1619514596,100,49,7.43,3.99
Khingansk,RU,49.1167,131.1833,1619514596,100,90,8.13,2.37
Lincoln,US,40.8,-96.667,1619514472,1,72,19.44,3.09
Saint-Augustin,CA,51.226,-58.6502,1619514597,100,95,2.26,11.6
Progreso,MX,21.2833,-89.6667,1619514447,40,83,24.0,3.09
Ondjiva,AO,-17.0667,15.7333,1619514597,20,43,24.0,2.06
Alice Springs,AU,-23.7,133.8833,1619514597,0,20,23.33,4.12
Nichinan,JP,31.6,131.3667,1619514370,75,73,21.0,4.63
La Rioja,ES,42.25,-2.5,1619514517,75,94,12.22,2.57
Mossamedes,AO,-15.1961,12.1522,1619514499,40,83,21.0,2.39
Salalah,OM,17.0151,54.0924,1619514470,20,66,30.0,5.66
Palm Valley,US,30.1775,-81.3876,1619514598,96,94,17.78,3.56
São José da Coroa Grande,BR,-8.8978,-35.1478,1619514598,99,83,24.75,0.84
Santa Cruz,MA,30.4202,-9.5982,1619514598,20,73,20.0,0.88
Luleå,SE,65.5842,22.1547,1619514470,40,52,4.0,3.09
Mumbwa,ZM,-14.9783,27.0619,1619514458,13,38,27.34,3.35
Boa Vista,BR,2.8197,-60.6733,1619514598,75,88,24.0,2.57
Shahr-e Kord,IR,32.3256,50.8644,1619514457,20,12,23.0,4.12
Kempten (Allgäu),DE,47.7267,10.3139,1619514598,0,57,13.89,4.12
Antalaha,MG,-14.9003,50.2788,1619514505,58,76,27.29,3.11
Puquio,PE,-14.7,-74.1333,1619514599,7,55,6.92,1.73
Port Blair,IN,11.6667,92.75,1619514442,39,59,30.52,2.49
Kutum,SD,14.2,24.6667,1619514599,13,7,31.78,6.89
Poronaysk,RU,49.2167,143.1167,1619514599,63,73,1.84,4.21
Ginda,IN,30.6945,78.4932,1619514599,1,13,27.92,3.35
Timrå,SE,62.487,17.3257,1619514599,90,42,6.0,5.14
Fortaleza,BR,-3.7227,-38.5247,1619514600,40,94,26.67,3.09
Manta,EC,-0.95,-80.7333,1619514513,75,88,24.0,2.57
Watrous,CA,51.6668,-105.4679,1619514601,4,64,2.0,6.17
Ikom,NG,5.9667,8.7063,1619514601,100,68,30.69,0.72
Davila,PH,18.4726,120.5763,1619514601,40,58,30.0,2.06
Bodden Town,KY,19.2833,-81.25,1619514612,48,1,26.67,3.58
Krasnogvardeyskoye,RU,45.8456,41.5186,1619514612,72,66,12.39,4.82
Saldanha,ZA,-33.0117,17.9442,1619514466,4,88,18.0,1.03
El Dovio,CO,4.5079,-76.2362,1619514613,100,97,16.48,0.97
Khakhea,BW,-24.6895,23.494,1619514613,3,18,27.64,3.52
Araouane,ML,18.9048,-3.5265,1619514613,4,10,36.17,6.11
Matsuura,JP,33.3271,129.721,1619514613,75,53,22.0,8.75
Kumul,CN,42.8,93.45,1619514613,0,9,18.96,4.86
Khovd,MN,48.0056,91.6419,1619514613,99,15,10.77,2.65
El Ejido,ES,36.7763,-2.8146,1619514414,40,88,18.33,3.09
Rovaniemi,FI,66.5,25.7167,1619514463,40,64,1.0,4.63
Shangzhi,CN,45.2167,127.9667,1619514614,100,69,13.32,5.25
Mokhsogollokh,RU,61.4681,128.9203,1619514614,100,82,-1.69,4.49
Rawson,AR,-43.3002,-65.1023,1619514614,21,52,15.18,3.92
Ulkan,RU,57.243,107.3223,1619514614,100,56,0.24,3.93
Makakilo City,US,21.3469,-158.0858,1619514504,75,73,24.0,2.06
Pemangkat,ID,1.1667,108.9667,1619514494,95,75,28.43,2.64
Raja,SS,8.4596,25.678,1619514615,54,32,34.72,2.19
Sioux Lookout,CA,50.1001,-91.917,1619514615,90,86,1.0,1.03
Asău,RO,46.4333,26.4,1619514615,100,60,5.56,1.06
Tuxtla Gutiérrez,MX,16.75,-93.1167,1619514615,7,76,24.48,0.56
Praia,CV,14.9215,-23.5087,1619514500,40,68,22.0,5.14
Chimbote,PE,-9.0853,-78.5783,1619514493,55,96,17.73,3.45
San Cristobal,VE,7.7669,-72.225,1619514617,90,95,18.82,1.15
Kiama,AU,-34.6833,150.8667,1619514618,19,76,18.33,0.45
Balkanabat,TM,39.5108,54.3671,1619514618,17,18,34.8,5.39
Gao,ML,16.6362,1.637,1619514514,85,17,36.93,1.17
Saint-Doulchard,FR,47.1037,2.352,1619514618,0,44,14.0,2.06
Yerofey Pavlovich,RU,53.9667,121.9667,1619514618,100,90,4.99,2.25
Tefé,BR,-3.3542,-64.7114,1619514450,100,99,22.46,0.78
Kruisfontein,ZA,-34.0033,24.7314,1619514619,34,54,24.44,1.79
Kamloops,CA,50.6665,-120.3192,1619514619,1,65,6.0,2.57
Chokurdakh,RU,70.6333,147.9167,1619514619,100,93,-5.65,2.65
Kikwit,CD,-5.041,18.8162,1619514619,100,59,30.19,0.77
Panguna,PG,-6.3164,155.4848,1619514619,98,95,20.94,0.39
Mnogovershinnyy,RU,53.9353,139.9242,1619514620,100,91,2.51,1.34
Balyqshy,KZ,47.0667,51.8667,1619514495,75,67,16.0,9.0
Paragominas,BR,-2.9667,-47.4833,1619514434,77,98,21.4,0.62
Changping,CN,40.2186,116.2197,1619514620,0,11,22.0,10.0
Weymouth,US,42.2209,-70.9398,1619514477,38,48,7.22,6.17
Bahir Dar,ET,11.5936,37.3908,1619514420,80,53,22.4,0.77
Puri,IN,19.8,85.85,1619514449,20,35,39.0,2.06
Pyaozerskiy,RU,65.8333,31.1667,1619514626,100,73,1.45,0.32
Siilinjärvi,FI,63.0833,27.6667,1619514493,90,60,2.0,3.6
Iraray,PH,8.9936,118.0511,1619514626,41,71,28.71,3.1
Botngård,NO,63.7653,9.8111,1619514626,75,75,4.0,3.6
Pokhara,NP,28.2333,83.9833,1619514443,3,9,35.69,4.35
Ponta Delgada,PT,37.7333,-25.6667,1619514505,75,82,15.0,4.12
Punta Alta,AR,-38.8759,-62.0736,1619514485,2,75,12.81,4.34
Northam,GB,51.0333,-4.2167,1619514516,8,82,12.78,2.68
Neuquén,AR,-38.9516,-68.0591,1619514627,43,100,7.0,0.86
Comodoro Rivadavia,AR,-45.8667,-67.5,1619514456,0,48,17.0,9.26
Lorengau,PG,-2.0226,147.2712,1619514627,98,73,27.99,3.3
Kulu,TR,39.0951,33.0799,1619514513,5,46,14.54,1.63
Channel-Port aux Basques,CA,47.5702,-59.1367,1619514637,100,98,3.6,3.17
Japura,ID,-0.3167,102.35,1619514638,99,77,28.51,1.22
Arlit,NE,18.7369,7.3853,1619514638,61,6,38.83,2.99
Hakui,JP,36.8833,136.7833,1619514638,0,30,19.0,2.06
Luanda,AO,-8.8368,13.2343,1619514470,40,70,30.0,2.57
Marsabit,KE,2.3284,37.9899,1619514512,100,53,24.41,4.52
Antofagasta,CL,-23.65,-70.4,1619514642,0,72,14.0,1.03
Puerto del Rosario,ES,28.5004,-13.8627,1619514642,20,64,21.0,2.57
Cabinda,AO,-5.55,12.2,1619514642,40,79,30.0,1.54
Ketchikan,US,55.3422,-131.6461,1619514642,1,75,6.0,2.57
Blacksburg,US,37.2296,-80.4139,1619514472,1,87,9.0,1.49
Laas,IT,46.6166,10.7002,1619514643,90,100,13.0,3.09
Isangel,VU,-19.55,169.2667,1619514643,84,75,24.24,7.83
Novosheshminsk,RU,55.0651,51.2338,1619514643,100,45,10.71,3.73
Codó,BR,-4.4553,-43.8856,1619514508,48,98,21.99,0.5
Alta Floresta,BR,-9.8756,-56.0861,1619514643,100,98,20.56,1.37
Vilhena,BR,-12.7406,-60.1458,1619514644,47,98,17.23,1.24
Amahai,ID,-3.3333,128.9167,1619514644,13,67,27.5,1.76
Srednekolymsk,RU,67.45,153.6833,1619514644,23,88,-4.99,2.36
Shumskiy,RU,54.8318,99.1328,1619514644,91,81,5.69,0.9
Ubari,LY,26.5921,12.7805,1619514644,42,11,34.1,7.08
Kyra,RU,49.5776,111.9753,1619514644,100,32,3.58,10.53
Urucará,BR,-2.5364,-57.76,1619514644,100,98,22.11,0.46
Ibrā’,OM,22.6906,58.5334,1619514461,98,10,36.91,4.66
Almirante,PA,9.3,-82.4,1619514645,92,74,17.78,4.02
Kintampo,GH,8.0563,-1.7306,1619514645,91,70,27.89,2.9
Alekseyevsk,RU,57.8406,108.3492,1619514645,100,55,-0.3,3.62
Katangli,RU,51.7102,143.2326,1619514645,99,82,-0.69,6.14
Kinshasa,CD,-4.3246,15.3215,1619514645,40,74,29.0,3.6
Portland,US,45.5234,-122.6762,1619514645,90,81,9.44,4.12
Ardakān,IR,32.31,54.0175,1619514463,20,16,31.0,3.09
Fare,PF,-16.7,-151.0167,1619514646,5,70,27.34,3.56
Chifeng,CN,42.2683,118.9636,1619514646,100,13,14.23,9.08
Abalak,RU,58.1286,68.5944,1619514646,76,35,13.31,6.6
Fukuechō,JP,32.6881,128.8419,1619514647,75,73,20.0,6.17
Innisfail,AU,-17.5333,146.0333,1619514647,96,69,22.96,3.8
Bubaque,GW,11.2833,-15.8333,1619514647,8,64,25.4,3.34
Okha,RU,53.5739,142.9478,1619514647,90,84,-0.69,6.43
Awjilah,LY,29.1081,21.2869,1619514647,0,18,27.26,3.15
North Bend,US,43.4065,-124.2243,1619514647,90,100,6.67,2.06
Storm Lake,US,42.6411,-95.2097,1619514647,40,87,9.0,8.23
Boundiali,CI,9.5217,-6.4869,1619514437,91,64,28.03,4.07
Malinyi,TZ,-8.9333,36.1333,1619514460,51,74,28.19,0.38
Chapais,CA,49.7834,-74.8492,1619514648,1,74,-3.0,4.63
San Miguel de Cozumel,MX,20.5083,-86.9458,1619514419,40,83,25.0,2.06
Batán,CR,10.0844,-83.341,1619514648,70,90,23.46,0.81
Shetpe,KZ,44.1667,52.1167,1619514648,100,46,19.29,10.03
Mossendjo,CG,-2.9506,12.7261,1619514489,92,68,27.97,1.3
Dubai,AE,25.2582,55.3047,1619514155,0,16,40.0,4.63
San Javier,ES,37.8063,-0.8374,1619514497,0,72,22.22,2.06
Maningrida,AU,-12.0667,134.2667,1619514649,100,94,24.89,2.24
Suntar,RU,62.1444,117.6319,1619514649,100,56,-1.83,3.55
Teya,RU,60.3778,92.6267,1619514659,93,99,5.0,2.52
Gryazovets,RU,58.88,40.2525,1619514474,98,56,6.72,2.95
Malakal,SS,9.5334,31.6605,1619514659,22,36,33.33,2.91
Masuguru,TZ,-11.3667,38.4167,1619514659,97,78,26.65,2.12
Poum,NC,-20.2333,164.0167,1619514660,100,66,24.58,11.17
Fort Nelson,CA,58.8053,-122.7002,1619514660,90,85,-10.0,6.17
Morehead,US,37.2711,-87.1764,1619514660,1,59,18.0,4.63
Shingū,JP,33.7333,135.9833,1619514640,75,37,19.0,5.14
Lakhisarai,IN,25.1768,86.0932,1619514660,63,3,42.42,3.52
Ancud,CL,-41.8697,-73.8203,1619514419,90,94,12.0,4.12
Moerai,PF,-22.4333,-151.3333,1619514661,54,76,25.43,5.48
Emmett,US,43.8735,-116.4993,1619514661,81,94,5.0,0.06
Dingle,PH,10.9995,122.6711,1619514661,27,61,29.5,5.31
Labuhan,ID,-6.8844,112.2051,1619514661,82,66,29.94,3.33
Margate,GB,51.3813,1.3862,1619514513,32,82,10.0,3.08
Andenes,NO,69.3143,16.1194,1619514662,75,60,3.0,4.63
Makkah al Mukarramah,SA,21.4267,39.8261,1619514601,0,21,35.68,2.46
Qurayyat,SA,31.3318,37.3428,1619514662,0,40,22.0,7.2
Contamana,PE,-7.3333,-75.0167,1619514662,93,99,20.23,0.85
Tilichiki,RU,60.4667,166.1,1619514663,100,98,-1.27,1.84
Sain Alto,MX,23.5833,-103.25,1619514663,94,42,16.42,1.4
Alofi,NU,-19.0595,-169.9187,1619514663,75,89,27.0,2.57
Havelock,US,34.8791,-76.9013,1619514488,20,93,17.22,2.52
Hanstholm,DK,57.1167,8.6167,1619514663,0,46,8.89,0.45
Port Macquarie,AU,-31.4333,152.9167,1619514515,0,90,16.67,3.22
Cravo Norte,CO,6.3017,-70.2041,1619514664,99,82,24.56,1.89
Lensk,RU,60.7253,114.9278,1619514493,100,68,-2.03,3.2
Ettaiyapuram,IN,9.1441,77.9907,1619514664,40,46,36.0,5.14
Moose Factory,CA,51.2585,-80.6094,1619514664,90,51,2.0,3.09
Kilindoni,TZ,-7.9139,39.6668,1619514664,77,83,26.47,4.52
Jiujiang,CN,29.7333,115.9833,1619514445,100,88,17.9,0.26
Danielskuil,ZA,-28.1887,23.5395,1619514665,88,28,22.39,4.3
Turukhansk,RU,65.8167,87.9833,1619514665,59,97,2.65,6.27
Bintulu,MY,3.1667,113.0333,1619514611,20,74,30.0,1.54
Pahlgām,IN,34.0333,75.3333,1619514665,100,45,14.29,1.23
Mackay,AU,-21.15,149.2,1619514646,40,73,23.0,5.14
Městec Králové,CZ,50.2072,15.2976,1619514666,0,40,9.0,6.17
Zharkent,KZ,44.1628,80.0,1619514449,44,15,26.34,3.5
Kencong,ID,-8.2833,113.3667,1619514461,40,70,28.14,3.57
Ellisras,ZA,-23.6649,27.7443,1619514667,0,12,29.33,1.55
Livny,RU,52.4253,37.6069,1619514472,42,57,5.91,5.79
Hervey Bay,AU,-25.2986,152.8535,1619514667,2,71,20.0,0.45
Jalu,LY,29.0331,21.5482,1619514667,0,18,27.18,2.83
Vestmannaeyjar,IS,63.4427,-20.2734,1619514667,40,87,7.0,3.09
Sisimiut,GL,66.9395,-53.6735,1619514667,85,91,0.55,3.98
Kariba,ZW,-16.5167,28.8,1619514667,6,43,28.92,1.06
Teguise,ES,29.0605,-13.564,1619514668,40,60,21.0,2.57
Prince Albert,CA,53.2001,-105.7677,1619514510,75,51,-1.0,4.63
Astoria,US,46.1879,-123.8313,1619514418,90,93,8.89,1.54
Pacific Grove,US,36.6177,-121.9166,1619514678,40,71,11.0,2.06
Weiser,US,44.251,-116.9693,1619514678,1,86,2.78,1.54
Bereket,TM,39.2446,55.5154,1619514678,30,14,35.92,3.97
Sinnamary,GF,5.3833,-52.95,1619514678,100,93,24.29,3.55
